<?xml version="1.0" encoding="UTF-8"?>
<gpx xmlns="http://www.topografix.com/GPX/1/1" version="1.1" creator="EasyGPS 3.0" xmlns:xsi="http://www.w3.org/2001/XMLSchema-instance" xsi:schemaLocation="http://www.topografix.com/GPX/1/1 http://www.topografix.com/GPX/1/1/gpx.xsd http://www.topografix.com/GPX/gpx_overlay/0/3 http://www.topografix.com/GPX/gpx_overlay/0/3/gpx_overlay.xsd http://www.topografix.com/GPX/gpx_modified/0/1 http://www.topografix.com/GPX/gpx_modified/0/1/gpx_modified.xsd">
<metadata>
<bounds minlat="54.35663639" minlon="-3.17194148" maxlat="54.40328940" maxlon="-3.12151334"/>
<extensions>
<time xmlns="http://www.topografix.com/GPX/gpx_modified/0/1">2009-01-17T19:13:14.015Z</time>
</extensions>
</metadata>
<wpt lat="54.36107736" lon="-3.17191589">
<ele>160.000</ele>
<time>2009-01-17T18:44:47.718Z</time>
<name>ST1CAR</name>
<desc>Car park at the start of the seathwaite tarn road</desc>
<sym>Car</sym>
<type>Car </type>
<extensions>
<time xmlns="http://www.topografix.com/GPX/gpx_modified/0/1">2009-01-17T19:13:14.015Z</time>
<label xmlns="http://www.topografix.com/GPX/gpx_overlay/0/3">
<label_text>Car park</label_text>
</label>
</extensions>
</wpt>
<wpt lat="54.35663639" lon="-3.15524734">
<ele>410.000</ele>
<time>2009-01-17T18:44:47.718Z</time>
<name>ST2WAL</name>
<sym>Waypoint</sym>
<type>Waypoint</type>
<extensions>
<time xmlns="http://www.topografix.com/GPX/gpx_modified/0/1">2009-01-17T19:13:14.015Z</time>
<label xmlns="http://www.topografix.com/GPX/gpx_overlay/0/3">
<label_text>ST2WAL</label_text>
</label>
</extensions>
</wpt>
<wpt lat="54.35811610" lon="-3.14616346">
<ele>550.000</ele>
<time>2009-01-17T18:44:47.718Z</time>
<name>ST3LEA</name>
<desc>Leave walna scar road heading towards summit of Walna Scar</desc>
<sym>Waypoint</sym>
<type>Summit</type>
<extensions>
<time xmlns="http://www.topografix.com/GPX/gpx_modified/0/1">2009-01-17T19:13:14.015Z</time>
<label xmlns="http://www.topografix.com/GPX/gpx_overlay/0/3">
<label_text>Leave walna scar road</label_text>
</label>
</extensions>
</wpt>
<wpt lat="54.35715962" lon="-3.14372088">
<ele>608.000</ele>
<time>2009-01-17T18:44:47.718Z</time>
<name>ST4WST</name>
<desc>Walna scar summit</desc>
<sym>Trail Head</sym>
<type>Summit</type>
<extensions>
<time xmlns="http://www.topografix.com/GPX/gpx_modified/0/1">2009-01-17T19:13:14.015Z</time>
<label xmlns="http://www.topografix.com/GPX/gpx_overlay/0/3">
<label_text>Walna scar summit</label_text>
</label>
</extensions>
</wpt>
<wpt lat="54.35956005" lon="-3.13889385">
<ele>682.000</ele>
<time>2009-01-17T18:44:47.718Z</time>
<name>ST5BPT</name>
<desc>Brown Pike summit</desc>
<sym>Trail Head</sym>
<type>Summit</type>
<extensions>
<time xmlns="http://www.topografix.com/GPX/gpx_modified/0/1">2009-01-17T19:13:14.015Z</time>
<label xmlns="http://www.topografix.com/GPX/gpx_overlay/0/3">
<label_text>Brown Pike summit</label_text>
</label>
</extensions>
</wpt>
<wpt lat="54.36565720" lon="-3.13661537">
<ele>744.000</ele>
<time>2009-01-17T18:44:47.718Z</time>
<name>ST6BPT</name>
<desc>Buck Pike</desc>
<sym>Trail Head</sym>
<type>Summit</type>
<extensions>
<time xmlns="http://www.topografix.com/GPX/gpx_modified/0/1">2009-01-17T19:13:14.015Z</time>
<label xmlns="http://www.topografix.com/GPX/gpx_overlay/0/3">
<label_text>Buck Pike</label_text>
</label>
</extensions>
</wpt>
<wpt lat="54.37027652" lon="-3.13665062">
<ele>778.000</ele>
<time>2009-01-17T18:44:47.718Z</time>
<name>ST7DCT</name>
<desc>Dow Crag</desc>
<sym>Trail Head</sym>
<type>Summit</type>
<extensions>
<time xmlns="http://www.topografix.com/GPX/gpx_modified/0/1">2009-01-17T19:13:14.015Z</time>
<label xmlns="http://www.topografix.com/GPX/gpx_overlay/0/3">
<label_text>Dow Crag</label_text>
</label>
</extensions>
</wpt>
<wpt lat="54.37456269" lon="-3.13101144">
<ele>649.000</ele>
<time>2009-01-17T18:44:47.718Z</time>
<name>ST8GOA</name>
<desc>Goat's Hawse</desc>
<sym>Waypoint</sym>
<type>Waypoint</type>
<extensions>
<time xmlns="http://www.topografix.com/GPX/gpx_modified/0/1">2009-01-17T19:13:14.015Z</time>
<label xmlns="http://www.topografix.com/GPX/gpx_overlay/0/3">
<label_text>Goat's Hawse</label_text>
</label>
</extensions>
</wpt>
<wpt lat="54.37062486" lon="-3.12151334">
<ele>802.000</ele>
<time>2009-01-17T18:44:47.718Z</time>
<name>CONOLD</name>
<desc>Coniston Old Man</desc>
<sym>Trail Head</sym>
<type>Summit</type>
<extensions>
<label xmlns="http://www.topografix.com/GPX/gpx_overlay/0/3">
<label_text>Coniston Old Man</label_text>
</label>
</extensions>
</wpt>
<wpt lat="54.37731358" lon="-3.12420520">
<ele>796.000</ele>
<time>2009-01-17T18:44:47.718Z</time>
<name>ST9BFT</name>
<desc>Brim Fell</desc>
<sym>Trail Head</sym>
<type>Summit</type>
<extensions>
<time xmlns="http://www.topografix.com/GPX/gpx_modified/0/1">2009-01-17T19:13:14.015Z</time>
<label xmlns="http://www.topografix.com/GPX/gpx_overlay/0/3">
<label_text>Brim Fell</label_text>
</label>
</extensions>
</wpt>
<wpt lat="54.39047622" lon="-3.12176218">
<ele>770.000</ele>
<time>2009-01-17T18:44:47.718Z</time>
<name>ST10GH</name>
<desc>Great How on Swirl Band</desc>
<sym>Trail Head</sym>
<type>Summit</type>
<extensions>
<time xmlns="http://www.topografix.com/GPX/gpx_modified/0/1">2009-01-17T19:13:14.015Z</time>
<label xmlns="http://www.topografix.com/GPX/gpx_overlay/0/3">
<label_text>Great How on Swirl Band</label_text>
</label>
</extensions>
</wpt>
<wpt lat="54.39520551" lon="-3.12156779">
<ele>802.000</ele>
<time>2009-01-17T18:44:47.718Z</time>
<name>ST11SH</name>
<desc>Swirl How</desc>
<sym>Trail Head</sym>
<type>Summit</type>
<extensions>
<time xmlns="http://www.topografix.com/GPX/gpx_modified/0/1">2009-01-17T19:13:14.015Z</time>
<label xmlns="http://www.topografix.com/GPX/gpx_overlay/0/3">
<label_text>Swirl How</label_text>
</label>
</extensions>
</wpt>
<wpt lat="54.39835064" lon="-3.12548910">
<ele>785.000</ele>
<time>2009-01-17T18:44:47.718Z</time>
<name>ST12GC</name>
<desc>Great Carrs</desc>
<sym>Trail Head</sym>
<type>Summit</type>
<extensions>
<time xmlns="http://www.topografix.com/GPX/gpx_modified/0/1">2009-01-17T19:13:14.015Z</time>
<label xmlns="http://www.topografix.com/GPX/gpx_overlay/0/3">
<label_text>Great Carrs</label_text>
</label>
</extensions>
</wpt>
<wpt lat="54.40328940" lon="-3.12596328">
<ele>692.000</ele>
<time>2009-01-17T18:44:47.718Z</time>
<name>LICARR</name>
<desc>Little Carrs</desc>
<sym>Trail Head</sym>
<type>Summit</type>
<extensions>
<label xmlns="http://www.topografix.com/GPX/gpx_overlay/0/3">
<label_text>Little Carrs</label_text>
</label>
</extensions>
</wpt>
<wpt lat="54.39356853" lon="-3.14088317">
<ele>770.000</ele>
<time>2009-01-17T18:44:47.718Z</time>
<name>ST13GF</name>
<desc>Grey Friar</desc>
<sym>Trail Head</sym>
<type>Summit</type>
<extensions>
<time xmlns="http://www.topografix.com/GPX/gpx_modified/0/1">2009-01-17T19:13:14.015Z</time>
<label xmlns="http://www.topografix.com/GPX/gpx_overlay/0/3">
<label_text>Grey Friar</label_text>
</label>
</extensions>
</wpt>
<wpt lat="54.38477454" lon="-3.15642265">
<ele>630.000</ele>
<time>2009-01-17T18:44:47.718Z</time>
<name>ST14TF</name>
<desc>Troutal Fell</desc>
<sym>Trail Head</sym>
<type>Summit</type>
<extensions>
<time xmlns="http://www.topografix.com/GPX/gpx_modified/0/1">2009-01-17T19:13:14.015Z</time>
<label xmlns="http://www.topografix.com/GPX/gpx_overlay/0/3">
<label_text>Troutal Fell</label_text>
</label>
</extensions>
</wpt>
<wpt lat="54.38041965" lon="-3.15599227">
<ele>360.000</ele>
<time>2009-01-17T18:44:47.718Z</time>
<name>ST15FP</name>
<desc>Intersect with footpath</desc>
<sym>Waypoint</sym>
<type>Summit</type>
<extensions>
<time xmlns="http://www.topografix.com/GPX/gpx_modified/0/1">2009-01-17T19:13:14.015Z</time>
<label xmlns="http://www.topografix.com/GPX/gpx_overlay/0/3">
<label_text>Intersect with footpath</label_text>
</label>
</extensions>
</wpt>
<wpt lat="54.37609419" lon="-3.15717931">
<ele>330.000</ele>
<time>2009-01-17T18:44:47.718Z</time>
<name>ST16ST</name>
<desc>Seathwaite tarn</desc>
<sym>Fishing Area</sym>
<type>Summit</type>
<extensions>
<time xmlns="http://www.topografix.com/GPX/gpx_modified/0/1">2009-01-17T19:13:14.015Z</time>
<label xmlns="http://www.topografix.com/GPX/gpx_overlay/0/3">
<label_text>Seathwaite tarn</label_text>
</label>
</extensions>
</wpt>
<wpt lat="54.36197588" lon="-3.17194148">
<ele>160.000</ele>
<time>2009-01-17T18:44:47.718Z</time>
<name>ST17CP</name>
<sym>Car</sym>
<type>Car park</type>
<extensions>
<time xmlns="http://www.topografix.com/GPX/gpx_modified/0/1">2009-01-17T19:13:14.015Z</time>
<label xmlns="http://www.topografix.com/GPX/gpx_overlay/0/3">
<label_text>Car Park -end</label_text>
</label>
</extensions>
</wpt>
<rte>
<name>SEATHWAITETAR</name>
<desc>Seathwaite Tarn round in anti-clockwise direction</desc>
<type>Walk</type>
<extensions>
<label xmlns="http://www.topografix.com/GPX/gpx_overlay/0/3">
<label_text>Seathwaite Tarn round</label_text>
</label>
</extensions>
<rtept lat="54.36107736" lon="-3.17191589">
<ele>160.000</ele>
<time>2009-01-17T18:44:47.718Z</time>
<name>ST1CAR</name>
<desc>Car park at the start of the seathwaite tarn road</desc>
<sym>Car</sym>
<type>Car </type>
<extensions>
<time xmlns="http://www.topografix.com/GPX/gpx_modified/0/1">2009-01-17T19:13:14.015Z</time>
<label xmlns="http://www.topografix.com/GPX/gpx_overlay/0/3">
<label_text>Car park</label_text>
</label>
</extensions>
</rtept>
<rtept lat="54.35663639" lon="-3.15524734">
<ele>410.000</ele>
<time>2009-01-17T18:44:47.718Z</time>
<name>ST2WAL</name>
<sym>Waypoint</sym>
<type>Waypoint</type>
<extensions>
<time xmlns="http://www.topografix.com/GPX/gpx_modified/0/1">2009-01-17T19:13:14.015Z</time>
<label xmlns="http://www.topografix.com/GPX/gpx_overlay/0/3">
<label_text>ST2WAL</label_text>
</label>
</extensions>
</rtept>
<rtept lat="54.35811610" lon="-3.14616346">
<ele>550.000</ele>
<time>2009-01-17T18:44:47.718Z</time>
<name>ST3LEA</name>
<desc>Leave walna scar road heading towards summit of Walna Scar</desc>
<sym>Waypoint</sym>
<type>Summit</type>
<extensions>
<time xmlns="http://www.topografix.com/GPX/gpx_modified/0/1">2009-01-17T19:13:14.015Z</time>
<label xmlns="http://www.topografix.com/GPX/gpx_overlay/0/3">
<label_text>Leave walna scar road</label_text>
</label>
</extensions>
</rtept>
<rtept lat="54.35715962" lon="-3.14372088">
<ele>608.000</ele>
<time>2009-01-17T18:44:47.718Z</time>
<name>ST4WST</name>
<desc>Walna scar summit</desc>
<sym>Trail Head</sym>
<type>Summit</type>
<extensions>
<time xmlns="http://www.topografix.com/GPX/gpx_modified/0/1">2009-01-17T19:13:14.015Z</time>
<label xmlns="http://www.topografix.com/GPX/gpx_overlay/0/3">
<label_text>Walna scar summit</label_text>
</label>
</extensions>
</rtept>
<rtept lat="54.35956005" lon="-3.13889385">
<ele>682.000</ele>
<time>2009-01-17T18:44:47.718Z</time>
<name>ST5BPT</name>
<desc>Brown Pike summit</desc>
<sym>Trail Head</sym>
<type>Summit</type>
<extensions>
<time xmlns="http://www.topografix.com/GPX/gpx_modified/0/1">2009-01-17T19:13:14.015Z</time>
<label xmlns="http://www.topografix.com/GPX/gpx_overlay/0/3">
<label_text>Brown Pike summit</label_text>
</label>
</extensions>
</rtept>
<rtept lat="54.36565720" lon="-3.13661537">
<ele>744.000</ele>
<time>2009-01-17T18:44:47.718Z</time>
<name>ST6BPT</name>
<desc>Buck Pike</desc>
<sym>Trail Head</sym>
<type>Summit</type>
<extensions>
<time xmlns="http://www.topografix.com/GPX/gpx_modified/0/1">2009-01-17T19:13:14.015Z</time>
<label xmlns="http://www.topografix.com/GPX/gpx_overlay/0/3">
<label_text>Buck Pike</label_text>
</label>
</extensions>
</rtept>
<rtept lat="54.37027652" lon="-3.13665062">
<ele>778.000</ele>
<time>2009-01-17T18:44:47.718Z</time>
<name>ST7DCT</name>
<desc>Dow Crag</desc>
<sym>Trail Head</sym>
<type>Summit</type>
<extensions>
<time xmlns="http://www.topografix.com/GPX/gpx_modified/0/1">2009-01-17T19:13:14.015Z</time>
<label xmlns="http://www.topografix.com/GPX/gpx_overlay/0/3">
<label_text>Dow Crag</label_text>
</label>
</extensions>
</rtept>
<rtept lat="54.37456269" lon="-3.13101144">
<ele>649.000</ele>
<time>2009-01-17T18:44:47.718Z</time>
<name>ST8GOA</name>
<desc>Goat's Hawse</desc>
<sym>Waypoint</sym>
<type>Waypoint</type>
<extensions>
<time xmlns="http://www.topografix.com/GPX/gpx_modified/0/1">2009-01-17T19:13:14.015Z</time>
<label xmlns="http://www.topografix.com/GPX/gpx_overlay/0/3">
<label_text>Goat's Hawse</label_text>
</label>
</extensions>
</rtept>
<rtept lat="54.37731358" lon="-3.12420520">
<ele>796.000</ele>
<time>2009-01-17T18:44:47.718Z</time>
<name>ST9BFT</name>
<desc>Brim Fell</desc>
<sym>Trail Head</sym>
<type>Summit</type>
<extensions>
<time xmlns="http://www.topografix.com/GPX/gpx_modified/0/1">2009-01-17T19:13:14.015Z</time>
<label xmlns="http://www.topografix.com/GPX/gpx_overlay/0/3">
<label_text>Brim Fell</label_text>
</label>
</extensions>
</rtept>
<rtept lat="54.39047622" lon="-3.12176218">
<ele>770.000</ele>
<time>2009-01-17T18:44:47.718Z</time>
<name>ST10GH</name>
<desc>Great How on Swirl Band</desc>
<sym>Trail Head</sym>
<type>Summit</type>
<extensions>
<time xmlns="http://www.topografix.com/GPX/gpx_modified/0/1">2009-01-17T19:13:14.015Z</time>
<label xmlns="http://www.topografix.com/GPX/gpx_overlay/0/3">
<label_text>Great How on Swirl Band</label_text>
</label>
</extensions>
</rtept>
<rtept lat="54.39520551" lon="-3.12156779">
<ele>802.000</ele>
<time>2009-01-17T18:44:47.718Z</time>
<name>ST11SH</name>
<desc>Swirl How</desc>
<sym>Trail Head</sym>
<type>Summit</type>
<extensions>
<time xmlns="http://www.topografix.com/GPX/gpx_modified/0/1">2009-01-17T19:13:14.015Z</time>
<label xmlns="http://www.topografix.com/GPX/gpx_overlay/0/3">
<label_text>Swirl How</label_text>
</label>
</extensions>
</rtept>
<rtept lat="54.39835064" lon="-3.12548910">
<ele>785.000</ele>
<time>2009-01-17T18:44:47.718Z</time>
<name>ST12GC</name>
<desc>Great Carrs</desc>
<sym>Trail Head</sym>
<type>Summit</type>
<extensions>
<time xmlns="http://www.topografix.com/GPX/gpx_modified/0/1">2009-01-17T19:13:14.015Z</time>
<label xmlns="http://www.topografix.com/GPX/gpx_overlay/0/3">
<label_text>Great Carrs</label_text>
</label>
</extensions>
</rtept>
<rtept lat="54.39356853" lon="-3.14088317">
<ele>770.000</ele>
<time>2009-01-17T18:44:47.718Z</time>
<name>ST13GF</name>
<desc>Grey Friar</desc>
<sym>Trail Head</sym>
<type>Summit</type>
<extensions>
<time xmlns="http://www.topografix.com/GPX/gpx_modified/0/1">2009-01-17T19:13:14.015Z</time>
<label xmlns="http://www.topografix.com/GPX/gpx_overlay/0/3">
<label_text>Grey Friar</label_text>
</label>
</extensions>
</rtept>
<rtept lat="54.38477454" lon="-3.15642265">
<ele>630.000</ele>
<time>2009-01-17T18:44:47.718Z</time>
<name>ST14TF</name>
<desc>Troutal Fell</desc>
<sym>Trail Head</sym>
<type>Summit</type>
<extensions>
<time xmlns="http://www.topografix.com/GPX/gpx_modified/0/1">2009-01-17T19:13:14.015Z</time>
<label xmlns="http://www.topografix.com/GPX/gpx_overlay/0/3">
<label_text>Troutal Fell</label_text>
</label>
</extensions>
</rtept>
<rtept lat="54.38041965" lon="-3.15599227">
<ele>360.000</ele>
<time>2009-01-17T18:44:47.718Z</time>
<name>ST15FP</name>
<desc>Intersect with footpath</desc>
<sym>Waypoint</sym>
<type>Summit</type>
<extensions>
<time xmlns="http://www.topografix.com/GPX/gpx_modified/0/1">2009-01-17T19:13:14.015Z</time>
<label xmlns="http://www.topografix.com/GPX/gpx_overlay/0/3">
<label_text>Intersect with footpath</label_text>
</label>
</extensions>
</rtept>
<rtept lat="54.37609419" lon="-3.15717931">
<ele>330.000</ele>
<time>2009-01-17T18:44:47.718Z</time>
<name>ST16ST</name>
<desc>Seathwaite tarn</desc>
<sym>Fishing Area</sym>
<type>Summit</type>
<extensions>
<time xmlns="http://www.topografix.com/GPX/gpx_modified/0/1">2009-01-17T19:13:14.015Z</time>
<label xmlns="http://www.topografix.com/GPX/gpx_overlay/0/3">
<label_text>Seathwaite tarn</label_text>
</label>
</extensions>
</rtept>
<rtept lat="54.36197588" lon="-3.17194148">
<ele>160.000</ele>
<time>2009-01-17T18:44:47.718Z</time>
<name>ST17CP</name>
<sym>Car</sym>
<type>Car park</type>
<extensions>
<time xmlns="http://www.topografix.com/GPX/gpx_modified/0/1">2009-01-17T19:13:14.015Z</time>
<label xmlns="http://www.topografix.com/GPX/gpx_overlay/0/3">
<label_text>Car Park -end</label_text>
</label>
</extensions>
</rtept>
</rte>
<extensions>
</extensions>
</gpx>
