<?xml version="1.0" encoding="UTF-8"?>
<gpx xmlns="http://www.topografix.com/GPX/1/1" version="1.1" creator="EasyGPS 3.0" xmlns:xsi="http://www.w3.org/2001/XMLSchema-instance" xsi:schemaLocation="http://www.topografix.com/GPX/1/1 http://www.topografix.com/GPX/1/1/gpx.xsd http://www.topografix.com/GPX/gpx_overlay/0/3 http://www.topografix.com/GPX/gpx_overlay/0/3/gpx_overlay.xsd http://www.topografix.com/GPX/gpx_modified/0/1 http://www.topografix.com/GPX/gpx_modified/0/1/gpx_modified.xsd">
<metadata>
<bounds minlat="54.34964500" minlon="-2.97576752" maxlat="54.38342218" maxlon="-2.94250800"/>
<extensions>
<time xmlns="http://www.topografix.com/GPX/gpx_modified/0/1">2009-10-30T22:21:51.859Z</time>
</extensions>
</metadata>
<wpt lat="54.35567600" lon="-2.94267800">
<ele>50.000</ele>
<time>2009-10-30T22:20:24.750Z</time>
<name>CH1CAR</name>
<cmt>Park near the shore</cmt>
<desc>Park near the shore</desc>
<sym>Waypoint</sym>
<extensions>
<time xmlns="http://www.topografix.com/GPX/gpx_modified/0/1">2009-10-30T22:20:45.921Z</time>
<label xmlns="http://www.topografix.com/GPX/gpx_overlay/0/3">
<label_text>CH1CAR</label_text>
</label>
</extensions>
</wpt>
<wpt lat="54.35719500" lon="-2.94948300">
<ele>150.000</ele>
<time>2009-10-30T22:20:24.750Z</time>
<name>CH2SWT</name>
<cmt>Turn South West on Track</cmt>
<desc>Turn South West on Track</desc>
<sym>Waypoint</sym>
<extensions>
<time xmlns="http://www.topografix.com/GPX/gpx_modified/0/1">2009-10-30T22:20:45.921Z</time>
<label xmlns="http://www.topografix.com/GPX/gpx_overlay/0/3">
<label_text>CH2SWT</label_text>
</label>
</extensions>
</wpt>
<wpt lat="54.35546800" lon="-2.95190500">
<ele>150.000</ele>
<time>2009-10-30T22:20:24.750Z</time>
<name>CH3NWT</name>
<cmt>At crossroads take NW track</cmt>
<desc>At crossroads take NW track</desc>
<sym>Waypoint</sym>
<extensions>
<time xmlns="http://www.topografix.com/GPX/gpx_modified/0/1">2009-10-30T22:20:45.921Z</time>
<label xmlns="http://www.topografix.com/GPX/gpx_overlay/0/3">
<label_text>CH3NWT</label_text>
</label>
</extensions>
</wpt>
<wpt lat="54.36672000" lon="-2.94978000">
<ele>230.000</ele>
<time>2009-10-30T22:20:24.750Z</time>
<name>CH4FPW</name>
<cmt>Take FP SW</cmt>
<desc>Take FP SW</desc>
<sym>Waypoint</sym>
<extensions>
<time xmlns="http://www.topografix.com/GPX/gpx_modified/0/1">2009-10-30T22:20:45.921Z</time>
<label xmlns="http://www.topografix.com/GPX/gpx_overlay/0/3">
<label_text>CH4FPW</label_text>
</label>
</extensions>
</wpt>
<wpt lat="54.36547800" lon="-2.95338300">
<ele>230.000</ele>
<time>2009-10-30T22:20:24.750Z</time>
<name>CH5FPN</name>
<cmt>FP turns N</cmt>
<desc>FP turns N</desc>
<sym>Waypoint</sym>
<extensions>
<time xmlns="http://www.topografix.com/GPX/gpx_modified/0/1">2009-10-30T22:20:45.921Z</time>
<label xmlns="http://www.topografix.com/GPX/gpx_overlay/0/3">
<label_text>CH5FPN</label_text>
</label>
</extensions>
</wpt>
<wpt lat="54.36794300" lon="-2.95304000">
<ele>269.000</ele>
<time>2009-10-30T22:20:24.750Z</time>
<name>CH6YEW</name>
<cmt>Claife Heights summit</cmt>
<desc>Claife Heights summit</desc>
<sym>Waypoint</sym>
<extensions>
<time xmlns="http://www.topografix.com/GPX/gpx_modified/0/1">2009-10-30T22:20:45.921Z</time>
<label xmlns="http://www.topografix.com/GPX/gpx_overlay/0/3">
<label_text>CH6YEW</label_text>
</label>
</extensions>
</wpt>
<wpt lat="54.37273200" lon="-2.95091900">
<ele>200.000</ele>
<time>2009-10-30T22:20:24.750Z</time>
<name>CH7TRA</name>
<cmt>Continue on track veering NW</cmt>
<desc>Continue on track veering NW</desc>
<sym>Waypoint</sym>
<extensions>
<time xmlns="http://www.topografix.com/GPX/gpx_modified/0/1">2009-10-30T22:20:45.921Z</time>
<label xmlns="http://www.topografix.com/GPX/gpx_overlay/0/3">
<label_text>CH7TRA</label_text>
</label>
</extensions>
</wpt>
<wpt lat="54.38271500" lon="-2.96146600">
<ele>150.000</ele>
<time>2009-10-30T22:20:24.750Z</time>
<name>CH8TRS</name>
<cmt>Turn S on track</cmt>
<desc>Turn S on track</desc>
<sym>Waypoint</sym>
<extensions>
<time xmlns="http://www.topografix.com/GPX/gpx_modified/0/1">2009-10-30T22:20:45.921Z</time>
<label xmlns="http://www.topografix.com/GPX/gpx_overlay/0/3">
<label_text>CH8TRS</label_text>
</label>
</extensions>
</wpt>
<wpt lat="54.37996000" lon="-2.96317300">
<ele>150.000</ele>
<time>2009-10-30T22:20:24.750Z</time>
<name>CH9LAT</name>
<cmt>Possible diversion to Latterbarrow</cmt>
<desc>Possible diversion to Latterbarrow</desc>
<sym>Waypoint</sym>
<extensions>
<time xmlns="http://www.topografix.com/GPX/gpx_modified/0/1">2009-10-30T22:20:45.921Z</time>
<label xmlns="http://www.topografix.com/GPX/gpx_overlay/0/3">
<label_text>CH9LAT</label_text>
</label>
</extensions>
</wpt>
<wpt lat="54.37602500" lon="-2.96069400">
<ele>150.000</ele>
<time>2009-10-30T22:20:24.750Z</time>
<name>CH10SW</name>
<cmt>Take bridleway towards tarns</cmt>
<desc>Take bridleway towards tarns</desc>
<sym>Waypoint</sym>
<extensions>
<time xmlns="http://www.topografix.com/GPX/gpx_modified/0/1">2009-10-30T22:20:45.921Z</time>
<label xmlns="http://www.topografix.com/GPX/gpx_overlay/0/3">
<label_text>CH10SW</label_text>
</label>
</extensions>
</wpt>
<wpt lat="54.35701800" lon="-2.96609800">
<ele>150.000</ele>
<time>2009-10-30T22:20:24.750Z</time>
<name>CH11AR</name>
<cmt>Take bridleyway SE</cmt>
<desc>Take bridleyway SE</desc>
<sym>Waypoint</sym>
<extensions>
<time xmlns="http://www.topografix.com/GPX/gpx_modified/0/1">2009-10-30T22:20:45.921Z</time>
<label xmlns="http://www.topografix.com/GPX/gpx_overlay/0/3">
<label_text>CH11AR</label_text>
</label>
</extensions>
</wpt>
<wpt lat="54.35084800" lon="-2.95649100">
<ele>150.000</ele>
<time>2009-10-30T22:20:24.750Z</time>
<name>CH12FR</name>
<cmt>Pub on road</cmt>
<desc>Pub on road</desc>
<sym>Waypoint</sym>
<extensions>
<time xmlns="http://www.topografix.com/GPX/gpx_modified/0/1">2009-10-30T22:20:45.921Z</time>
<label xmlns="http://www.topografix.com/GPX/gpx_overlay/0/3">
<label_text>CH12FR</label_text>
</label>
</extensions>
</wpt>
<wpt lat="54.34964500" lon="-2.94384700">
<ele>100.000</ele>
<time>2009-10-30T22:20:24.750Z</time>
<name>CH13NO</name>
<cmt>Point on road</cmt>
<desc>Point on road</desc>
<sym>Waypoint</sym>
<extensions>
<time xmlns="http://www.topografix.com/GPX/gpx_modified/0/1">2009-10-30T22:20:45.921Z</time>
<label xmlns="http://www.topografix.com/GPX/gpx_overlay/0/3">
<label_text>CH13NO</label_text>
</label>
</extensions>
</wpt>
<wpt lat="54.35500300" lon="-2.94250800">
<ele>50.000</ele>
<time>2009-10-30T22:20:24.750Z</time>
<name>CH14AR</name>
<cmt>Back at Car</cmt>
<desc>Back at Car</desc>
<sym>Waypoint</sym>
<extensions>
<time xmlns="http://www.topografix.com/GPX/gpx_modified/0/1">2009-10-30T22:20:45.921Z</time>
<label xmlns="http://www.topografix.com/GPX/gpx_overlay/0/3">
<label_text>CH14AR</label_text>
</label>
</extensions>
</wpt>
<wpt lat="54.38342218" lon="-2.97576752">
<ele>245.000</ele>
<time>2009-10-30T22:21:51.859Z</time>
<name>LATTER</name>
<sym>Dot</sym>
<type>Summit</type>
<extensions>
<label xmlns="http://www.topografix.com/GPX/gpx_overlay/0/3">
<label_text>Latterbarrow</label_text>
</label>
</extensions>
</wpt>
<rte>
<type>Circular route</type>
<extensions>
<label xmlns="http://www.topografix.com/GPX/gpx_overlay/0/3">
<label_text>CLAIFEHEIGHS</label_text>
</label>
</extensions>
<rtept lat="54.35567600" lon="-2.94267800">
<ele>50.000</ele>
<time>2009-10-30T22:20:24.750Z</time>
<name>CH1CAR</name>
<cmt>Park near the shore</cmt>
<desc>Park near the shore</desc>
<sym>Waypoint</sym>
<extensions>
<time xmlns="http://www.topografix.com/GPX/gpx_modified/0/1">2009-10-30T22:20:45.921Z</time>
<label xmlns="http://www.topografix.com/GPX/gpx_overlay/0/3">
<label_text>CH1CAR</label_text>
</label>
</extensions>
</rtept>
<rtept lat="54.35719500" lon="-2.94948300">
<ele>150.000</ele>
<time>2009-10-30T22:20:24.750Z</time>
<name>CH2SWT</name>
<cmt>Turn South West on Track</cmt>
<desc>Turn South West on Track</desc>
<sym>Waypoint</sym>
<extensions>
<time xmlns="http://www.topografix.com/GPX/gpx_modified/0/1">2009-10-30T22:20:45.921Z</time>
<label xmlns="http://www.topografix.com/GPX/gpx_overlay/0/3">
<label_text>CH2SWT</label_text>
</label>
</extensions>
</rtept>
<rtept lat="54.35546800" lon="-2.95190500">
<ele>150.000</ele>
<time>2009-10-30T22:20:24.750Z</time>
<name>CH3NWT</name>
<cmt>At crossroads take NW track</cmt>
<desc>At crossroads take NW track</desc>
<sym>Waypoint</sym>
<extensions>
<time xmlns="http://www.topografix.com/GPX/gpx_modified/0/1">2009-10-30T22:20:45.921Z</time>
<label xmlns="http://www.topografix.com/GPX/gpx_overlay/0/3">
<label_text>CH3NWT</label_text>
</label>
</extensions>
</rtept>
<rtept lat="54.36672000" lon="-2.94978000">
<ele>230.000</ele>
<time>2009-10-30T22:20:24.750Z</time>
<name>CH4FPW</name>
<cmt>Take FP SW</cmt>
<desc>Take FP SW</desc>
<sym>Waypoint</sym>
<extensions>
<time xmlns="http://www.topografix.com/GPX/gpx_modified/0/1">2009-10-30T22:20:45.921Z</time>
<label xmlns="http://www.topografix.com/GPX/gpx_overlay/0/3">
<label_text>CH4FPW</label_text>
</label>
</extensions>
</rtept>
<rtept lat="54.36547800" lon="-2.95338300">
<ele>230.000</ele>
<time>2009-10-30T22:20:24.750Z</time>
<name>CH5FPN</name>
<cmt>FP turns N</cmt>
<desc>FP turns N</desc>
<sym>Waypoint</sym>
<extensions>
<time xmlns="http://www.topografix.com/GPX/gpx_modified/0/1">2009-10-30T22:20:45.921Z</time>
<label xmlns="http://www.topografix.com/GPX/gpx_overlay/0/3">
<label_text>CH5FPN</label_text>
</label>
</extensions>
</rtept>
<rtept lat="54.36794300" lon="-2.95304000">
<ele>269.000</ele>
<time>2009-10-30T22:20:24.750Z</time>
<name>CH6YEW</name>
<cmt>Claife Heights summit</cmt>
<desc>Claife Heights summit</desc>
<sym>Waypoint</sym>
<extensions>
<time xmlns="http://www.topografix.com/GPX/gpx_modified/0/1">2009-10-30T22:20:45.921Z</time>
<label xmlns="http://www.topografix.com/GPX/gpx_overlay/0/3">
<label_text>CH6YEW</label_text>
</label>
</extensions>
</rtept>
<rtept lat="54.37273200" lon="-2.95091900">
<ele>200.000</ele>
<time>2009-10-30T22:20:24.750Z</time>
<name>CH7TRA</name>
<cmt>Continue on track veering NW</cmt>
<desc>Continue on track veering NW</desc>
<sym>Waypoint</sym>
<extensions>
<time xmlns="http://www.topografix.com/GPX/gpx_modified/0/1">2009-10-30T22:20:45.921Z</time>
<label xmlns="http://www.topografix.com/GPX/gpx_overlay/0/3">
<label_text>CH7TRA</label_text>
</label>
</extensions>
</rtept>
<rtept lat="54.38271500" lon="-2.96146600">
<ele>150.000</ele>
<time>2009-10-30T22:20:24.750Z</time>
<name>CH8TRS</name>
<cmt>Turn S on track</cmt>
<desc>Turn S on track</desc>
<sym>Waypoint</sym>
<extensions>
<time xmlns="http://www.topografix.com/GPX/gpx_modified/0/1">2009-10-30T22:20:45.921Z</time>
<label xmlns="http://www.topografix.com/GPX/gpx_overlay/0/3">
<label_text>CH8TRS</label_text>
</label>
</extensions>
</rtept>
<rtept lat="54.37996000" lon="-2.96317300">
<ele>150.000</ele>
<time>2009-10-30T22:20:24.750Z</time>
<name>CH9LAT</name>
<cmt>Possible diversion to Latterbarrow</cmt>
<desc>Possible diversion to Latterbarrow</desc>
<sym>Waypoint</sym>
<extensions>
<time xmlns="http://www.topografix.com/GPX/gpx_modified/0/1">2009-10-30T22:20:45.921Z</time>
<label xmlns="http://www.topografix.com/GPX/gpx_overlay/0/3">
<label_text>CH9LAT</label_text>
</label>
</extensions>
</rtept>
<rtept lat="54.37602500" lon="-2.96069400">
<ele>150.000</ele>
<time>2009-10-30T22:20:24.750Z</time>
<name>CH10SW</name>
<cmt>Take bridleway towards tarns</cmt>
<desc>Take bridleway towards tarns</desc>
<sym>Waypoint</sym>
<extensions>
<time xmlns="http://www.topografix.com/GPX/gpx_modified/0/1">2009-10-30T22:20:45.921Z</time>
<label xmlns="http://www.topografix.com/GPX/gpx_overlay/0/3">
<label_text>CH10SW</label_text>
</label>
</extensions>
</rtept>
<rtept lat="54.35701800" lon="-2.96609800">
<ele>150.000</ele>
<time>2009-10-30T22:20:24.750Z</time>
<name>CH11AR</name>
<cmt>Take bridleyway SE</cmt>
<desc>Take bridleyway SE</desc>
<sym>Waypoint</sym>
<extensions>
<time xmlns="http://www.topografix.com/GPX/gpx_modified/0/1">2009-10-30T22:20:45.921Z</time>
<label xmlns="http://www.topografix.com/GPX/gpx_overlay/0/3">
<label_text>CH11AR</label_text>
</label>
</extensions>
</rtept>
<rtept lat="54.35084800" lon="-2.95649100">
<ele>150.000</ele>
<time>2009-10-30T22:20:24.750Z</time>
<name>CH12FR</name>
<cmt>Pub on road</cmt>
<desc>Pub on road</desc>
<sym>Waypoint</sym>
<extensions>
<time xmlns="http://www.topografix.com/GPX/gpx_modified/0/1">2009-10-30T22:20:45.921Z</time>
<label xmlns="http://www.topografix.com/GPX/gpx_overlay/0/3">
<label_text>CH12FR</label_text>
</label>
</extensions>
</rtept>
<rtept lat="54.34964500" lon="-2.94384700">
<ele>100.000</ele>
<time>2009-10-30T22:20:24.750Z</time>
<name>CH13NO</name>
<cmt>Point on road</cmt>
<desc>Point on road</desc>
<sym>Waypoint</sym>
<extensions>
<time xmlns="http://www.topografix.com/GPX/gpx_modified/0/1">2009-10-30T22:20:45.921Z</time>
<label xmlns="http://www.topografix.com/GPX/gpx_overlay/0/3">
<label_text>CH13NO</label_text>
</label>
</extensions>
</rtept>
<rtept lat="54.35500300" lon="-2.94250800">
<ele>50.000</ele>
<time>2009-10-30T22:20:24.750Z</time>
<name>CH14AR</name>
<cmt>Back at Car</cmt>
<desc>Back at Car</desc>
<sym>Waypoint</sym>
<extensions>
<time xmlns="http://www.topografix.com/GPX/gpx_modified/0/1">2009-10-30T22:20:45.921Z</time>
<label xmlns="http://www.topografix.com/GPX/gpx_overlay/0/3">
<label_text>CH14AR</label_text>
</label>
</extensions>
</rtept>
</rte>
<extensions>
</extensions>
</gpx>
